[
    {"place": "Louvre, Paris, France", "coordinates": [48.860616, 2.337618]},
    {"place": "Uffizi Gallery, Florence, Italy", "coordinates": [43.768517, 11.252282]},
    {"place": "British Museum, London, UK", "coordinates": [51.519381, -0.126772]},
    {"place": "National Gallery of Art, Washington, DC, US", "coordinates": [38.895111, -77.009055]},
    {"place": "Hermitage Museum, Saint Petersburg, Russia", "coordinates": [59.934297, 30.307097]},
    {"place": "Musée Bonnat, Bayonne, France", "coordinates": [43.305827, -1.319457]},
    {"place": "Biblioteca Ambrosiana, Milan, Italy", "coordinates": [45.463930, 9.190162]},
    {"place": "Vatican Museums, Vatican", "coordinates": [41.902912, 12.453386]},
    {"place": "Bibliotheque de l'Institut de France, Paris, France", "coordinates": [48.857516, 2.342343]},
    {"place": "Alte Pinakothek, Munich, Germany", "coordinates": [48.141894, 11.576106]},
    {"place": "National Institute for the Graphic Design, Rome, Italy", "coordinates": [41.892031, 12.481215]},
    {"place": "Palazzo Reale di Torino, Turin, Italy", "coordinates": [45.067128, 7.685746]},
    {"place": "Insritut de France, Paris, France", "coordinates": [48.857516, 2.342343]},
    {"place": "Galleria dell'Accademia di Firenze, Florence, Italy", "coordinates": [43.768369, 11.250745]},
    {"place": "Czartoryski Museum, Kraków, Poland", "coordinates": [50.062391, 19.937500]},
    {"place": "Galleria dell'Accademia, Venice, Italy", "coordinates": [45.435378, 12.332199]},
    {"place": "Biblioteca Nacional de España, Madrid, Spain", "coordinates": [40.422456, -3.707044]},
    {"place": "Palazzo Brera, Milan, Italy", "coordinates": [45.467764, 9.194293]},
    {"place": "Albertina, Vienna, Austria", "coordinates": null}, // No specific building provided
    {"place": "Church Santa Maria delle Grazie, Milan, Italy", "coordinates": [45.464891, 9.185335]},
    {"place": "Musée des Beaux-Arts de Strasbourg, Strasbourg, France", "coordinates": [48.581039, 7.749642]},
    {"place": "Ackland Art Museum (University of North Carolina), Chapel Hill, NC, US", "coordinates": [35.915868, -79.051003]},
    {"place": "National Gallery, London, UK", "coordinates": [51.507351, -0.127697]},
    {"place": "La Scala Theatre Museum, Milan, Italy", "coordinates": [45.464183, 9.191772]},
    {"place": "Private Collection", "coordinates": null},
    {"place": "Museo del Prado, Madrid, Spain", "coordinates": [40.416775, -3.703790]},
    {"place": "Christ Church, Oxford, UK", "coordinates": [51.752033, -1.257732]},
    {"place": "Chatsworth House, Derbyshire, UK", "coordinates": [53.229046, -1.549789]},
    {"place": "Museum Boijmans van Beuningen, Rotterdam, Netherlands", "coordinates": [51.921317, 4.478988]},
    {"place": "Parma National Gallery, Parma, Italy", "coordinates": [44.802909, 10.334317]},
    {"place": "Ospedale degli Innocenti, Florence, Italy", "coordinates": [43.769678, 11.252906]},
    {"place": "Destroyed", "coordinates": null},
    {"place": "Private Collection, Scottish National Gallery of Modern Art, Edinburgh, UK", "coordinates": null},
    {"place": "Museo Baroffio e del Sacro Monte, Varese, Italy", "coordinates": [45.772099, 8.828732]},
    {"place": "Budapest Museum of Fine Arts, Budapest, Hungary", "coordinates": [47.493844, 19.040574]},
    {"place": "Wallraf-Richartz Museum, Cologne, Germany", "coordinates": [50.938317, 6.958292]}
  ]
  